header_seq,header_stamp_sec,header_stamp_nsec,header_frame_id,name_data,position_data,velocity_data,effort_data,BagFileName
13749.0,1744302482.0,10356780.0,0,['outer_yaw' 'outer_pitch' 'insertion' 'outer_roll'],[-0.0349028  -0.20317477  0.0877949   0.05418356],[ 0.  0.  0. -0.],[ -0.46648741 -13.52450752 -18.18148041   0.06067865],ECM1measured_js.parquet
13750.0,1744302482.0,28519868.0,0,['outer_yaw' 'outer_pitch' 'insertion' 'outer_roll'],[-0.0349028  -0.20317477  0.0877949   0.05418356],[ 0.  0.  0. -0.],[ -0.46472692 -13.53257561 -18.18148041   0.06067865],ECM1measured_js.parquet
13750.0,1744302482.0,28519868.0,0,['outer_yaw' 'outer_pitch' 'insertion' 'outer_roll'],[-0.0349028  -0.20317477  0.0877949   0.05418356],[ 0.  0.  0. -0.],[ -0.46472692 -13.53257561 -18.18148041   0.06067865],ECM1measured_js.parquet
13751.0,1744302482.0,67099177.0,0,['outer_yaw' 'outer_pitch' 'insertion' 'outer_roll'],[-0.0349028  -0.20317566  0.0877949   0.05418356],[ 0.         -0.00061359  0.         -0.        ],[ -0.46120605 -13.49979877 -18.18149757   0.06067865],ECM1measured_js.parquet
13752.0,1744302482.0,87316318.0,0,['outer_yaw' 'outer_pitch' 'insertion' 'outer_roll'],[-0.0349028  -0.20317566  0.0877949   0.05418356],[ 0.  0.  0. -0.],[ -0.45944557 -13.55420494 -18.18149757   0.06067865],ECM1measured_js.parquet
13753.0,1744302482.0,107572608.0,0,['outer_yaw' 'outer_pitch' 'insertion' 'outer_roll'],[-0.0349028  -0.20317614  0.0877949   0.05418356],[ 0.  0.  0. -0.],[ -0.45768514 -13.56088543 -18.18150711   0.06067865],ECM1measured_js.parquet
13754.0,1744302482.0,126155203.0,0,['outer_yaw' 'outer_pitch' 'insertion' 'outer_roll'],[-0.0349028  -0.20317614  0.0877949   0.05418356],[ 0.  0.  0. -0.],[ -0.45592466 -13.56850052 -18.18150711   0.06067865],ECM1measured_js.parquet
13755.0,1744302482.0,145394869.0,0,['outer_yaw' 'outer_pitch' 'insertion' 'outer_roll'],[-0.0349028  -0.20317662  0.0877949   0.05418356],[ 0.  0.  0. -0.],[ -0.45416424 -13.57500458 -18.18151474   0.06067865],ECM1measured_js.parquet
13756.0,1744302482.0,165079204.0,0,['outer_yaw' 'outer_pitch' 'insertion' 'outer_roll'],[-0.0349028  -0.20317662  0.0877949   0.05418356],[ 0.  0.  0. -0.],[ -0.45240375 -13.58246231 -18.18151474   0.06067865],ECM1measured_js.parquet
13757.0,1744302482.0,184170462.0,0,['outer_yaw' 'outer_pitch' 'insertion' 'outer_roll'],[-0.0349028  -0.20317703  0.0877949   0.05418356],[ 0.  0.  0. -0.],[ -0.4506433  -13.58894253 -18.18152428   0.06067865],ECM1measured_js.parquet
13758.0,1744302482.0,203518112.0,0,['outer_yaw' 'outer_pitch' 'insertion' 'outer_roll'],[-0.0349028  -0.20317703  0.0877949   0.05418356],[ 0.  0.  0. -0.],[ -0.44888282 -13.59626293 -18.18152428   0.06067865],ECM1measured_js.parquet
13759.0,1744302482.0,223725673.0,0,['outer_yaw' 'outer_pitch' 'insertion' 'outer_roll'],[-0.0349028  -0.20317751  0.0877949   0.05418356],[ 0.  0.  0. -0.],[ -0.4471224  -13.60250282 -18.18153191   0.06067865],ECM1measured_js.parquet
13760.0,1744302482.0,243364848.0,0,['outer_yaw' 'outer_pitch' 'insertion' 'outer_roll'],[-0.0349028  -0.20317751  0.0877949   0.05418356],[ 0.  0.  0. -0.],[ -0.44536191 -13.60966492 -18.18153191   0.06067865],ECM1measured_js.parquet
13762.0,1744302482.0,282738378.0,0,['outer_yaw' 'outer_pitch' 'insertion' 'outer_roll'],[-0.0349028  -0.20317799  0.0877949   0.05418356],[ 0.  0.  0. -0.],[ -0.44184098 -13.62270927 -18.18154144   0.06067865],ECM1measured_js.parquet
13763.0,1744302482.0,301852989.0,0,['outer_yaw' 'outer_pitch' 'insertion' 'outer_roll'],[-0.0349028  -0.20317841  0.0877949   0.05418356],[ 0.  0.  0. -0.],[ -0.44008055 -13.6287508  -18.18154907   0.06067865],ECM1measured_js.parquet
13764.0,1744302482.0,321195426.0,0,['outer_yaw' 'outer_pitch' 'insertion' 'outer_roll'],[-0.0349028  -0.20317841  0.0877949   0.05418356],[ 0.  0.  0. -0.],[ -0.43832007 -13.63561916 -18.18154907   0.06067865],ECM1measured_js.parquet
13766.0,1744302482.0,340346219.0,0,['outer_yaw' 'outer_pitch' 'insertion' 'outer_roll'],[-0.0349028  -0.20317888  0.0877949   0.05418356],[ 0.  0.  0. -0.],[ -0.43655965 -13.64129257 -18.18155861   0.06067865],ECM1measured_js.parquet
13766.0,1744302482.0,340346219.0,0,['outer_yaw' 'outer_pitch' 'insertion' 'outer_roll'],[-0.0349028  -0.20317888  0.0877949   0.05418356],[ 0.  0.  0. -0.],[ -0.43655965 -13.64129257 -18.18155861   0.06067865],ECM1measured_js.parquet
13767.0,1744302482.0,379344006.0,0,['outer_yaw' 'outer_pitch' 'insertion' 'outer_roll'],[-0.0349028  -0.20317936  0.0877949   0.05418356],[ 0.  0.  0. -0.],[ -0.43303874 -13.65342045 -18.18156815   0.06067865],ECM1measured_js.parquet
13768.0,1744302482.0,398745899.0,0,['outer_yaw' 'outer_pitch' 'insertion' 'outer_roll'],[-0.0349028  -0.20317978  0.0877949   0.05418356],[ 0.  0.  0. -0.],[ -0.43127829 -13.65896988 -18.18157578   0.06067865],ECM1measured_js.parquet
13769.0,1744302482.0,418795472.0,0,['outer_yaw' 'outer_pitch' 'insertion' 'outer_roll'],[-0.0349028  -0.20318025  0.0877949   0.05418356],[ 0.  0.  0. -0.],[ -0.42951787 -13.66429138 -18.18158531   0.06067865],ECM1measured_js.parquet
13770.0,1744302482.0,438092783.0,0,['outer_yaw' 'outer_pitch' 'insertion' 'outer_roll'],[-0.0349028  -0.20318025  0.0877949   0.05418356],[ 0.  0.  0. -0.],[ -0.42775738 -13.67054939 -18.18158531   0.06067865],ECM1measured_js.parquet
13771.0,1744302482.0,460197824.0,0,['outer_yaw' 'outer_pitch' 'insertion' 'outer_roll'],[-0.0349028  -0.20318073  0.0877949   0.05418356],[ 0.  0.  0. -0.],[ -0.4259969  -13.67566109 -18.18159485   0.06067865],ECM1measured_js.parquet
13772.0,1744302482.0,476973250.0,0,['outer_yaw' 'outer_pitch' 'insertion' 'outer_roll'],[-0.0349028  -0.20318073  0.0877949   0.05418356],[ 0.  0.  0. -0.],[ -0.42423642 -13.68176079 -18.18159485   0.06067865],ECM1measured_js.parquet
13773.0,1744302482.0,496680577.0,0,['outer_yaw' 'outer_pitch' 'insertion' 'outer_roll'],[-0.0349028  -0.20318121  0.0877949   0.05418356],[ 0.  0.  0. -0.],[ -0.42247599 -13.68666172 -18.18160439   0.06067865],ECM1measured_js.parquet
13774.0,1744302482.0,516281091.0,0,['outer_yaw' 'outer_pitch' 'insertion' 'outer_roll'],[-0.0349028  -0.20318162  0.0877949   0.05418356],[ 0.  0.  0. -0.],[ -0.42071557 -13.69161701 -18.18161201   0.06067865],ECM1measured_js.parquet
13775.0,1744302482.0,535683164.0,0,['outer_yaw' 'outer_pitch' 'insertion' 'outer_roll'],[-0.0349028  -0.20318162  0.0877949   0.05418356],[ 0.  0.  0. -0.],[ -0.41895509 -13.69742203 -18.18161201   0.06067865],ECM1measured_js.parquet
13777.0,1744302482.0,574644610.0,0,['outer_yaw' 'outer_pitch' 'insertion' 'outer_roll'],[-0.0349028  -0.2031821   0.0877949   0.05418356],[ 0.  0.  0. -0.],[ -0.41543418 -13.70771408 -18.18162155   0.06067865],ECM1measured_js.parquet
13778.0,1744302482.0,594299537.0,0,['outer_yaw' 'outer_pitch' 'insertion' 'outer_roll'],[-0.0349028  -0.20318258  0.0877949   0.05418356],[ 0.  0.  0. -0.],[ -0.41367376 -13.71215725 -18.18162918   0.06067865],ECM1measured_js.parquet
13779.0,1744302482.0,613397173.0,0,['outer_yaw' 'outer_pitch' 'insertion' 'outer_roll'],[-0.0349028  -0.203183    0.0877949   0.05418356],[ 0.  0.  0. -0.],[ -0.41191334 -13.71665668 -18.18163681   0.06067865],ECM1measured_js.parquet
13780.0,1744302482.0,632670850.0,0,['outer_yaw' 'outer_pitch' 'insertion' 'outer_roll'],[-0.0349028  -0.203183    0.0877949   0.05418356],[ 0.  0.  0. -0.],[ -0.41015285 -13.72200966 -18.18163681   0.06067865],ECM1measured_js.parquet
13781.0,1744302482.0,652482574.0,0,['outer_yaw' 'outer_pitch' 'insertion' 'outer_roll'],[-0.0349028  -0.20318347  0.0877949   0.05418356],[ 0.  0.  0. -0.],[ -0.40839243 -13.72621155 -18.18164825   0.06067865],ECM1measured_js.parquet
13782.0,1744302482.0,672685432.0,0,['outer_yaw' 'outer_pitch' 'insertion' 'outer_roll'],[-0.0349028  -0.20318395  0.0877949   0.05418356],[ 0.  0.  0. -0.],[ -0.40663198 -13.73031616 -18.18165588   0.06067865],ECM1measured_js.parquet
13783.0,1744302482.0,691720578.0,0,['outer_yaw' 'outer_pitch' 'insertion' 'outer_roll'],[-0.0349028  -0.20318395  0.0877949   0.05418356],[ 0.  0.  0. -0.],[ -0.40487149 -13.73535633 -18.18165588   0.06067865],ECM1measured_js.parquet
13784.0,1744302482.0,710507144.0,0,['outer_yaw' 'outer_pitch' 'insertion' 'outer_roll'],[-0.0349028  -0.20318449  0.0877949   0.05418356],[ 0.  0.  0. -0.],[ -0.40311104 -13.73912525 -18.18166733   0.06067865],ECM1measured_js.parquet
13785.0,1744302482.0,730057690.0,0,['outer_yaw' 'outer_pitch' 'insertion' 'outer_roll'],[-0.0349028  -0.20318449  0.0877949   0.05418356],[ 0.  0.  0. -0.],[ -0.40135056 -13.74398708 -18.18166733   0.06067865],ECM1measured_js.parquet
13786.0,1744302482.0,769903237.0,0,['outer_yaw' 'outer_pitch' 'insertion' 'outer_roll'],[-0.0349028  -0.20318538  0.0877949   0.05418356],[ 0.         -0.00061359  0.         -0.        ],[ -0.39782971 -13.70488644 -18.18168449   0.06067865],ECM1measured_js.parquet
13786.0,1744302482.0,769903237.0,0,['outer_yaw' 'outer_pitch' 'insertion' 'outer_roll'],[-0.0349028  -0.20318538  0.0877949   0.05418356],[ 0.         -0.00061359  0.         -0.        ],[ -0.39782971 -13.70488644 -18.18168449   0.06067865],ECM1measured_js.parquet
13787.0,1744302482.0,789133404.0,0,['outer_yaw' 'outer_pitch' 'insertion' 'outer_roll'],[-0.03490188 -0.20318538  0.0877949   0.05418356],[ 0.  0.  0. -0.],[ -0.39730799 -13.75608635 -18.18168449   0.06067865],ECM1measured_js.parquet
13788.0,1744302482.0,809167236.0,0,['outer_yaw' 'outer_pitch' 'insertion' 'outer_roll'],[-0.03490188 -0.20318586  0.0877949   0.05418356],[ 0.  0.  0. -0.],[ -0.39575291 -13.75954342 -18.18169403   0.06067865],ECM1measured_js.parquet
13789.0,1744302482.0,828220658.0,0,['outer_yaw' 'outer_pitch' 'insertion' 'outer_roll'],[-0.03490188 -0.20318586  0.0877949   0.05418356],[ 0.  0.  0. -0.],[ -0.39419776 -13.76395416 -18.18169403   0.06067865],ECM1measured_js.parquet
13790.0,1744302482.0,847939790.0,0,['outer_yaw' 'outer_pitch' 'insertion' 'outer_roll'],[-0.03490188 -0.20318633  0.0877949   0.05418356],[ 0.  0.  0. -0.],[ -0.39264268 -13.7672205  -18.18170357   0.06067865],ECM1measured_js.parquet
13792.0,1744302482.0,886819472.0,0,['outer_yaw' 'outer_pitch' 'insertion' 'outer_roll'],[-0.03490188 -0.20318675  0.0877949   0.05418356],[ 0.  0.  0. -0.],[ -0.38953245 -13.77466488 -18.1817112    0.06067865],ECM1measured_js.parquet
13793.0,1744302482.0,906258129.0,0,['outer_yaw' 'outer_pitch' 'insertion' 'outer_roll'],[-0.03490188 -0.20318723  0.0877949   0.05418356],[ 0.  0.  0. -0.],[ -0.3879773  -13.77771759 -18.18172073   0.06067865],ECM1measured_js.parquet
13794.0,1744302482.0,925931218.0,0,['outer_yaw' 'outer_pitch' 'insertion' 'outer_roll'],[-0.03490188 -0.20318723  0.0877949   0.05418356],[ 0.  0.  0. -0.],[ -0.38642216 -13.78167534 -18.18172073   0.06067865],ECM1measured_js.parquet
13795.0,1744302482.0,945045731.0,0,['outer_yaw' 'outer_pitch' 'insertion' 'outer_roll'],[-0.03490188 -0.2031877   0.0877949   0.05418356],[ 0.  0.  0. -0.],[ -0.38486707 -13.78450966 -18.18172836   0.06067865],ECM1measured_js.parquet
13796.0,1744302482.0,964843386.0,0,['outer_yaw' 'outer_pitch' 'insertion' 'outer_roll'],[-0.03490188 -0.2031877   0.0877949   0.05418356],[ 0.  0.  0. -0.],[ -0.38331193 -13.7883091  -18.18172836   0.06067865],ECM1measured_js.parquet
13797.0,1744302482.0,984106344.0,0,['outer_yaw' 'outer_pitch' 'insertion' 'outer_roll'],[-0.03490188 -0.20318812  0.0877949   0.05418356],[ 0.  0.  0. -0.],[ -0.38175681 -13.79107189 -18.1817379    0.06067865],ECM1measured_js.parquet
13798.0,1744302483.0,4016735.0,0,['outer_yaw' 'outer_pitch' 'insertion' 'outer_roll'],[-0.03490188 -0.2031886   0.0877949   0.05418356],[ 0.         -0.00061359  0.         -0.        ],[ -0.38020173 -13.74704552 -18.18174744   0.06067865],ECM1measured_js.parquet
13799.0,1744302483.0,23225318.0,0,['outer_yaw' 'outer_pitch' 'insertion' 'outer_roll'],[-0.03490188 -0.2031886   0.0877949   0.05418356],[ 0.  0.  0. -0.],[ -0.37864658 -13.79718399 -18.18174744   0.06067865],ECM1measured_js.parquet
13800.0,1744302483.0,42164608.0,0,['outer_yaw' 'outer_pitch' 'insertion' 'outer_roll'],[-0.03490188 -0.20318907  0.0877949   0.05418356],[ 0.  0.  0. -0.],[ -0.3770915  -13.79959774 -18.18175507   0.06067865],ECM1measured_js.parquet
13801.0,1744302483.0,62092731.0,0,['outer_yaw' 'outer_pitch' 'insertion' 'outer_roll'],[-0.03490188 -0.20318949  0.0877949   0.05418356],[ 0.  0.  0. -0.],[ -0.37553638 -13.80196667 -18.1817646    0.06067865],ECM1measured_js.parquet
13802.0,1744302483.0,81559300.0,0,['outer_yaw' 'outer_pitch' 'insertion' 'outer_roll'],[-0.03490188 -0.20318997  0.0877949   0.05418356],[ 0.  0.  0. -0.],[ -0.3739813  -13.80408573 -18.18177223   0.06067865],ECM1measured_js.parquet
13803.0,1744302483.0,101257831.0,0,['outer_yaw' 'outer_pitch' 'insertion' 'outer_roll'],[-0.03490188 -0.20318997  0.0877949   0.05418356],[ 0.  0.  0. -0.],[ -0.37242615 -13.80713844 -18.18177223   0.06067865],ECM1measured_js.parquet
13804.0,1744302483.0,120822077.0,0,['outer_yaw' 'outer_pitch' 'insertion' 'outer_roll'],[-0.03490188 -0.20319045  0.0877949   0.05418356],[ 0.  0.  0. -0.],[ -0.37087107 -13.80907345 -18.18178177   0.06067865],ECM1measured_js.parquet
13805.0,1744302483.0,140148078.0,0,['outer_yaw' 'outer_pitch' 'insertion' 'outer_roll'],[-0.03490188 -0.20319086  0.0877949   0.05418356],[ 0.         -0.00061359  0.         -0.        ],[ -0.36931598 -13.76441288 -18.1817894    0.06067865],ECM1measured_js.parquet
13807.0,1744302483.0,179431180.0,0,['outer_yaw' 'outer_pitch' 'insertion' 'outer_roll'],[-0.03490188 -0.20319086  0.0877949   0.05418356],[ 0.  0.  0. -0.],[ -0.36620569 -13.81656265 -18.1817894    0.06067865],ECM1measured_js.parquet
13808.0,1744302483.0,198570021.0,0,['outer_yaw' 'outer_pitch' 'insertion' 'outer_roll'],[-0.03490188 -0.20319134  0.0877949   0.05418356],[ 0.  0.  0. -0.],[ -0.36465058 -13.81822205 -18.18179893   0.06067865],ECM1measured_js.parquet
13809.0,1744302483.0,218198104.0,0,['outer_yaw' 'outer_pitch' 'insertion' 'outer_roll'],[-0.03490188 -0.20319134  0.0877949   0.05418356],[ 0.  0.  0. -0.],[ -0.36309543 -13.82082272 -18.18179893   0.06067865],ECM1measured_js.parquet
13810.0,1744302483.0,237979669.0,0,['outer_yaw' 'outer_pitch' 'insertion' 'outer_roll'],[-0.03490188 -0.20319182  0.0877949   0.05418356],[ 0.  0.  0. -0.],[ -0.36154032 -13.82226276 -18.18180847   0.06067865],ECM1measured_js.parquet
13811.0,1744302483.0,262193758.0,0,['outer_yaw' 'outer_pitch' 'insertion' 'outer_roll'],[-0.03490188 -0.20319182  0.0877949   0.05418356],[ 0.  0.  0. -0.],[ -0.35998517 -13.82470703 -18.18180847   0.06067865],ECM1measured_js.parquet
13812.0,1744302483.0,276830163.0,0,['outer_yaw' 'outer_pitch' 'insertion' 'outer_roll'],[-0.03490188 -0.20319223  0.0877949   0.05418356],[ 0.  0.  0. -0.],[ -0.35843009 -13.82616901 -18.1818161    0.06067865],ECM1measured_js.parquet
13813.0,1744302483.0,296117652.0,0,['outer_yaw' 'outer_pitch' 'insertion' 'outer_roll'],[-0.03490188 -0.20319223  0.0877949   0.05418356],[ 0.  0.  0. -0.],[ -0.35687494 -13.828475   -18.1818161    0.06067865],ECM1measured_js.parquet
13814.0,1744302483.0,315946447.0,0,['outer_yaw' 'outer_pitch' 'insertion' 'outer_roll'],[-0.03490188 -0.20319271  0.0877949   0.05418356],[ 0.  0.  0. -0.],[ -0.35531983 -13.82968807 -18.18182564   0.06067865],ECM1measured_js.parquet
13815.0,1744302483.0,335213677.0,0,['outer_yaw' 'outer_pitch' 'insertion' 'outer_roll'],[-0.03490188 -0.20319271  0.0877949   0.05418356],[ 0.  0.  0. -0.],[ -0.35376468 -13.83183575 -18.18182564   0.06067865],ECM1measured_js.parquet
13816.0,1744302483.0,354918350.0,0,['outer_yaw' 'outer_pitch' 'insertion' 'outer_roll'],[-0.03490188 -0.20319319  0.0877949   0.05418356],[ 0.  0.  0. -0.],[ -0.3522096  -13.83280563 -18.18183517   0.06067865],ECM1measured_js.parquet
13817.0,1744302483.0,374472298.0,0,['outer_yaw' 'outer_pitch' 'insertion' 'outer_roll'],[-0.03490188 -0.20319319  0.0877949   0.05418356],[ 0.  0.  0. -0.],[ -0.35065445 -13.83479691 -18.18183517   0.06067865],ECM1measured_js.parquet
13818.0,1744302483.0,393847774.0,0,['outer_yaw' 'outer_pitch' 'insertion' 'outer_roll'],[-0.03490188 -0.2031936   0.0877949   0.05418356],[ 0.  0.  0. -0.],[ -0.34909937 -13.83585739 -18.1818428    0.06067865],ECM1measured_js.parquet
13819.0,1744302483.0,412770967.0,0,['outer_yaw' 'outer_pitch' 'insertion' 'outer_roll'],[-0.03490188 -0.2031936   0.0877949   0.05418356],[ 0.  0.  0. -0.],[ -0.34754422 -13.83771038 -18.1818428    0.06067865],ECM1measured_js.parquet
13820.0,1744302483.0,432917754.0,0,['outer_yaw' 'outer_pitch' 'insertion' 'outer_roll'],[-0.03490188 -0.2031936   0.0877949   0.05418356],[ 0.  0.  0. -0.],[ -0.34598908 -13.83956432 -18.1818428    0.06067865],ECM1measured_js.parquet
13821.0,1744302483.0,471477695.0,0,['outer_yaw' 'outer_pitch' 'insertion' 'outer_roll'],[-0.03490188 -0.20319456  0.0877949   0.05418356],[ 0.  0.  0. -0.],[ -0.34287888 -13.84069252 -18.18186188   0.06067865],ECM1measured_js.parquet
13822.0,1744302483.0,491025304.0,0,['outer_yaw' 'outer_pitch' 'insertion' 'outer_roll'],[-0.03490096 -0.20319498  0.0877949   0.05418356],[ 0.  0.  0. -0.],[ -0.34263808 -13.84119129 -18.18186951   0.06067865],ECM1measured_js.parquet
13823.0,1744302483.0,510885141.0,0,['outer_yaw' 'outer_pitch' 'insertion' 'outer_roll'],[-0.03490096 -0.20319498  0.0877949   0.05418356],[ 0.  0.  0. -0.],[ -0.34128594 -13.84259224 -18.18186951   0.06067865],ECM1measured_js.parquet
13824.0,1744302483.0,530321108.0,0,['outer_yaw' 'outer_pitch' 'insertion' 'outer_roll'],[-0.03490096 -0.20319498  0.0877949   0.05418356],[ 0.  0.  0. -0.],[ -0.33993381 -13.84399319 -18.18186951   0.06067865],ECM1measured_js.parquet
13825.0,1744302483.0,549882933.0,0,['outer_yaw' 'outer_pitch' 'insertion' 'outer_roll'],[-0.03490096 -0.20319545  0.0877949   0.05418356],[ 0.  0.  0. -0.],[ -0.33858174 -13.84423447 -18.18187904   0.06067865],ECM1measured_js.parquet
13826.0,1744302483.0,569338079.0,0,['outer_yaw' 'outer_pitch' 'insertion' 'outer_roll'],[-0.03490096 -0.20319545  0.0877949   0.05418356],[ 0.  0.  0. -0.],[ -0.33722961 -13.84547901 -18.18187904   0.06067865],ECM1measured_js.parquet
13827.0,1744302483.0,588679400.0,0,['outer_yaw' 'outer_pitch' 'insertion' 'outer_roll'],[-0.03490096 -0.20319593  0.0877949   0.05418356],[ 0.  0.  0. -0.],[ -0.33587754 -13.84556961 -18.18188858   0.06067865],ECM1measured_js.parquet
13828.0,1744302483.0,608849852.0,0,['outer_yaw' 'outer_pitch' 'insertion' 'outer_roll'],[-0.03490096 -0.20319593  0.0877949   0.05418356],[ 0.  0.  0. -0.],[ -0.33452541 -13.84665585 -18.18188858   0.06067865],ECM1measured_js.parquet
13829.0,1744302483.0,627954406.0,0,['outer_yaw' 'outer_pitch' 'insertion' 'outer_roll'],[-0.03490096 -0.20319593  0.0877949   0.05418356],[ 0.  0.  0. -0.],[ -0.33317327 -13.84774208 -18.18188858   0.06067865],ECM1measured_js.parquet
13830.0,1744302483.0,647994654.0,0,['outer_yaw' 'outer_pitch' 'insertion' 'outer_roll'],[-0.03490096 -0.20319593  0.0877949   0.05418356],[ 0.  0.  0. -0.],[ -0.33182114 -13.84882832 -18.18188858   0.06067865],ECM1measured_js.parquet
13831.0,1744302483.0,666935205.0,0,['outer_yaw' 'outer_pitch' 'insertion' 'outer_roll'],[-0.03490096 -0.20319593  0.0877949   0.05418356],[ 0.  0.  0. -0.],[ -0.33046901 -13.84991455 -18.18188858   0.06067865],ECM1measured_js.parquet
13832.0,1744302483.0,686510317.0,0,['outer_yaw' 'outer_pitch' 'insertion' 'outer_roll'],[-0.03490096 -0.20319635  0.0877949   0.05418356],[ 0.  0.  0. -0.],[ -0.32911694 -13.8500576  -18.18189621   0.06067865],ECM1measured_js.parquet
13833.0,1744302483.0,705814368.0,0,['outer_yaw' 'outer_pitch' 'insertion' 'outer_roll'],[-0.03490096 -0.20319635  0.0877949   0.05418356],[ 0.  0.  0. -0.],[ -0.32776481 -13.85100555 -18.18189621   0.06067865],ECM1measured_js.parquet
13834.0,1744302483.0,725412050.0,0,['outer_yaw' 'outer_pitch' 'insertion' 'outer_roll'],[-0.03490096 -0.20319635  0.0877949   0.05418356],[ 0.  0.  0. -0.],[ -0.32641268 -13.85195446 -18.18189621   0.06067865],ECM1measured_js.parquet
13835.0,1744302483.0,744891364.0,0,['outer_yaw' 'outer_pitch' 'insertion' 'outer_roll'],[-0.03490096 -0.20319635  0.0877949   0.05418356],[ 0.  0.  0. -0.],[ -0.32506055 -13.85290241 -18.18189621   0.06067865],ECM1measured_js.parquet
13837.0,1744302483.0,783814573.0,0,['outer_yaw' 'outer_pitch' 'insertion' 'outer_roll'],[-0.03490096 -0.20319635  0.0877949   0.05418356],[ 0.  0.  0. -0.],[ -0.32235628 -13.85479927 -18.18189621   0.06067865],ECM1measured_js.parquet
13838.0,1744302483.0,803421601.0,0,['outer_yaw' 'outer_pitch' 'insertion' 'outer_roll'],[-0.03490004 -0.20319682  0.0877949   0.05418356],[ 0.  0.  0. -0.],[ -0.32223487 -13.85454655 -18.18190575   0.06067865],ECM1measured_js.parquet
13839.0,1744302483.0,822444405.0,0,['outer_yaw' 'outer_pitch' 'insertion' 'outer_roll'],[-0.03490004 -0.20319682  0.0877949   0.05418356],[ 0.  0.  0. -0.],[ -0.32108769 -13.8553381  -18.18190575   0.06067865],ECM1measured_js.parquet
13840.0,1744302483.0,842775756.0,0,['outer_yaw' 'outer_pitch' 'insertion' 'outer_roll'],[-0.03490004 -0.20319682  0.0877949   0.05418356],[ 0.  0.  0. -0.],[ -0.31994051 -13.85612965 -18.18190575   0.06067865],ECM1measured_js.parquet
13841.0,1744302483.0,862248243.0,0,['outer_yaw' 'outer_pitch' 'insertion' 'outer_roll'],[-0.03490004 -0.2031973   0.0877949   0.05418356],[ 0.  0.  0. -0.],[ -0.31879339 -13.85583591 -18.18191528   0.06067865],ECM1measured_js.parquet
13842.0,1744302483.0,881165079.0,0,['outer_yaw' 'outer_pitch' 'insertion' 'outer_roll'],[-0.03490004 -0.2031973   0.0877949   0.05418356],[ 0.  0.  0. -0.],[ -0.31764621 -13.85647011 -18.18191528   0.06067865],ECM1measured_js.parquet
13843.0,1744302483.0,900999503.0,0,['outer_yaw' 'outer_pitch' 'insertion' 'outer_roll'],[-0.03490004 -0.2031973   0.0877949   0.05418356],[ 0.  0.  0. -0.],[ -0.31649902 -13.85710335 -18.18191528   0.06067865],ECM1measured_js.parquet
13844.0,1744302483.0,920527735.0,0,['outer_yaw' 'outer_pitch' 'insertion' 'outer_roll'],[-0.03490004 -0.20319778  0.0877949   0.05418356],[ 0.  0.  0. -0.],[ -0.3153519  -13.85667419 -18.18192291   0.06067865],ECM1measured_js.parquet
13845.0,1744302483.0,939971220.0,0,['outer_yaw' 'outer_pitch' 'insertion' 'outer_roll'],[-0.03490004 -0.20319778  0.0877949   0.05418356],[ 0.  0.  0. -0.],[ -0.31420472 -13.85715103 -18.18192291   0.06067865],ECM1measured_js.parquet
13847.0,1744302483.0,979163843.0,0,['outer_yaw' 'outer_pitch' 'insertion' 'outer_roll'],[-0.03490004 -0.20319778  0.0877949   0.05418356],[ 0.  0.  0. -0.],[ -0.31191036 -13.85810566 -18.18192291   0.06067865],ECM1measured_js.parquet
13847.0,1744302483.0,979163843.0,0,['outer_yaw' 'outer_pitch' 'insertion' 'outer_roll'],[-0.03490004 -0.20319778  0.0877949   0.05418356],[ 0.  0.  0. -0.],[ -0.31191036 -13.85810566 -18.18192291   0.06067865],ECM1measured_js.parquet
13848.0,1744302483.0,997883022.0,0,['outer_yaw' 'outer_pitch' 'insertion' 'outer_roll'],[-0.03490004 -0.20319819  0.0877949   0.05418356],[ 0.  0.  0. -0.],[ -0.31076321 -13.85752583 -18.18193054   0.06067865],ECM1measured_js.parquet
13849.0,1744302484.0,17472050.0,0,['outer_yaw' 'outer_pitch' 'insertion' 'outer_roll'],[-0.03490004 -0.20319819  0.0877949   0.05418356],[ 0.  0.  0. -0.],[ -0.30961603 -13.85786533 -18.18193054   0.06067865],ECM1measured_js.parquet
13850.0,1744302484.0,37827069.0,0,['outer_yaw' 'outer_pitch' 'insertion' 'outer_roll'],[-0.03490004 -0.20319819  0.0877949   0.05418356],[ 0.  0.  0. -0.],[ -0.30846885 -13.85820484 -18.18193054   0.06067865],ECM1measured_js.parquet
13851.0,1744302484.0,59607551.0,0,['outer_yaw' 'outer_pitch' 'insertion' 'outer_roll'],[-0.03490004 -0.20319867  0.0877949   0.05418356],[ 0.  0.  0. -0.],[ -0.30732173 -13.85735893 -18.18194199   0.06067865],ECM1measured_js.parquet
13853.0,1744302484.0,95715319.0,0,['outer_yaw' 'outer_pitch' 'insertion' 'outer_roll'],[-0.03490004 -0.20319915  0.0877949   0.05418356],[ 0.  0.  0. -0.],[ -0.30502737 -13.85641098 -18.18194962   0.06067865],ECM1measured_js.parquet
13854.0,1744302484.0,115316654.0,0,['outer_yaw' 'outer_pitch' 'insertion' 'outer_roll'],[-0.03490004 -0.20319915  0.0877949   0.05418356],[ 0.  0.  0. -0.],[ -0.30388021 -13.85641098 -18.18194962   0.06067865],ECM1measured_js.parquet
13855.0,1744302484.0,134920587.0,0,['outer_yaw' 'outer_pitch' 'insertion' 'outer_roll'],[-0.03490004 -0.20319915  0.0877949   0.05418356],[ 0.  0.  0. -0.],[ -0.302733   -13.85641098 -18.18194962   0.06067865],ECM1measured_js.parquet
13855.0,1744302484.0,134920587.0,0,['outer_yaw' 'outer_pitch' 'insertion' 'outer_roll'],[-0.03490004 -0.20319915  0.0877949   0.05418356],[ 0.  0.  0. -0.],[ -0.302733   -13.85641098 -18.18194962   0.06067865],ECM1measured_js.parquet
13856.0,1744302484.0,173869224.0,0,['outer_yaw' 'outer_pitch' 'insertion' 'outer_roll'],[-0.03490004 -0.20319957  0.0877949   0.05418356],[ 0.  0.  0. -0.],[ -0.3004387  -13.85640526 -18.18195724   0.06067865],ECM1measured_js.parquet
13857.0,1744302484.0,193268260.0,0,['outer_yaw' 'outer_pitch' 'insertion' 'outer_roll'],[-0.03490004 -0.20319957  0.0877949   0.05418356],[ 0.  0.  0. -0.],[ -0.29929152 -13.85640526 -18.18195724   0.06067865],ECM1measured_js.parquet
13858.0,1744302484.0,213021509.0,0,['outer_yaw' 'outer_pitch' 'insertion' 'outer_roll'],[-0.03490004 -0.20319957  0.0877949   0.05418356],[ 0.  0.  0. -0.],[ -0.29814434 -13.85640526 -18.18195724   0.06067865],ECM1measured_js.parquet
13859.0,1744302484.0,232214239.0,0,['outer_yaw' 'outer_pitch' 'insertion' 'outer_roll'],[-0.03490004 -0.20319957  0.0877949   0.05418356],[ 0.  0.  0. -0.],[ -0.29699716 -13.85640526 -18.18195724   0.06067865],ECM1measured_js.parquet
13860.0,1744302484.0,251488004.0,0,['outer_yaw' 'outer_pitch' 'insertion' 'outer_roll'],[-0.03490004 -0.20320004  0.0877949   0.05418356],[ 0.  0.  0. -0.],[ -0.29585004 -13.85456276 -18.18196678   0.06067865],ECM1measured_js.parquet
13861.0,1744302484.0,271421155.0,0,['outer_yaw' 'outer_pitch' 'insertion' 'outer_roll'],[-0.03490004 -0.20320004  0.0877949   0.05418356],[ 0.  0.  0. -0.],[ -0.29470286 -13.85429287 -18.18196678   0.06067865],ECM1measured_js.parquet
13862.0,1744302484.0,291199991.0,0,['outer_yaw' 'outer_pitch' 'insertion' 'outer_roll'],[-0.03490004 -0.20320004  0.0877949   0.05418356],[ 0.  0.  0. -0.],[ -0.29355568 -13.85402298 -18.18196678   0.06067865],ECM1measured_js.parquet
13863.0,1744302484.0,310062026.0,0,['outer_yaw' 'outer_pitch' 'insertion' 'outer_roll'],[-0.03490004 -0.20320004  0.0877949   0.05418356],[ 0.  0.  0. -0.],[ -0.2924085  -13.85375404 -18.18196678   0.06067865],ECM1measured_js.parquet
13864.0,1744302484.0,329927475.0,0,['outer_yaw' 'outer_pitch' 'insertion' 'outer_roll'],[-0.03490004 -0.20320004  0.0877949   0.05418356],[ 0.  0.  0. -0.],[ -0.29126132 -13.85348415 -18.18196678   0.06067865],ECM1measured_js.parquet
13865.0,1744302484.0,349518786.0,0,['outer_yaw' 'outer_pitch' 'insertion' 'outer_roll'],[-0.03490004 -0.20320052  0.0877949   0.05418356],[ 0.  0.  0. -0.],[ -0.29011419 -13.85210896 -18.18197632   0.06067865],ECM1measured_js.parquet
13866.0,1744302484.0,368755597.0,0,['outer_yaw' 'outer_pitch' 'insertion' 'outer_roll'],[-0.03490004 -0.20320094  0.0877949   0.05418356],[ 0.  0.  0. -0.],[ -0.28896704 -13.85073376 -18.18198395   0.06067865],ECM1measured_js.parquet
13868.0,1744302484.0,408613001.0,0,['outer_yaw' 'outer_pitch' 'insertion' 'outer_roll'],[-0.03490004 -0.20320094  0.0877949   0.05418356],[ 0.  0.  0. -0.],[ -0.28667268 -13.8496027  -18.18198395   0.06067865],ECM1measured_js.parquet
13869.0,1744302484.0,427859278.0,0,['outer_yaw' 'outer_pitch' 'insertion' 'outer_roll'],[-0.03490004 -0.20320094  0.0877949   0.05418356],[ 0.  0.  0. -0.],[ -0.2855255  -13.84903717 -18.18198395   0.06067865],ECM1measured_js.parquet
13870.0,1744302484.0,447071690.0,0,['outer_yaw' 'outer_pitch' 'insertion' 'outer_roll'],[-0.03490004 -0.20320141  0.0877949   0.05418356],[ 0.  0.  0. -0.],[ -0.28437838 -13.8474102  -18.18199348   0.06067865],ECM1measured_js.parquet
13871.0,1744302484.0,466701536.0,0,['outer_yaw' 'outer_pitch' 'insertion' 'outer_roll'],[-0.03490004 -0.20320141  0.0877949   0.05418356],[ 0.  0.  0. -0.],[ -0.2832312  -13.84668732 -18.18199348   0.06067865],ECM1measured_js.parquet
13872.0,1744302484.0,486013353.0,0,['outer_yaw' 'outer_pitch' 'insertion' 'outer_roll'],[-0.03490004 -0.20320141  0.0877949   0.05418356],[ 0.  0.  0. -0.],[ -0.28208402 -13.84596539 -18.18199348   0.06067865],ECM1measured_js.parquet
13873.0,1744302484.0,505330706.0,0,['outer_yaw' 'outer_pitch' 'insertion' 'outer_roll'],[-0.03489912 -0.20320141  0.0877949   0.05418356],[ 0.  0.  0. -0.],[ -0.28217828 -13.84524345 -18.18199348   0.06067865],ECM1measured_js.parquet
13874.0,1744302484.0,524949798.0,0,['outer_yaw' 'outer_pitch' 'insertion' 'outer_roll'],[-0.03489912 -0.20320195  0.0877949   0.05418356],[ 0.  0.  0. -0.],[ -0.28123531 -13.84323025 -18.18200302   0.06067865],ECM1measured_js.parquet
13875.0,1744302484.0,544578937.0,0,['outer_yaw' 'outer_pitch' 'insertion' 'outer_roll'],[-0.03489912 -0.20320195  0.0877949   0.05418356],[ 0.  0.  0. -0.],[ -0.2802923  -13.84232998 -18.18200302   0.06067865],ECM1measured_js.parquet
13876.0,1744302484.0,563743281.0,0,['outer_yaw' 'outer_pitch' 'insertion' 'outer_roll'],[-0.03489912 -0.20320195  0.0877949   0.05418356],[ 0.  0.  0. -0.],[ -0.2793493  -13.84142971 -18.18200302   0.06067865],ECM1measured_js.parquet
13877.0,1744302484.0,583622911.0,0,['outer_yaw' 'outer_pitch' 'insertion' 'outer_roll'],[-0.03489912 -0.20320195  0.0877949   0.05418356],[ 0.  0.  0. -0.],[ -0.27840629 -13.84052944 -18.18200302   0.06067865],ECM1measured_js.parquet
13878.0,1744302484.0,602744047.0,0,['outer_yaw' 'outer_pitch' 'insertion' 'outer_roll'],[-0.03489912 -0.20320195  0.0877949   0.05418356],[ 0.  0.  0. -0.],[ -0.27746329 -13.83962917 -18.18200302   0.06067865],ECM1measured_js.parquet
13879.0,1744302484.0,623035239.0,0,['outer_yaw' 'outer_pitch' 'insertion' 'outer_roll'],[-0.03489912 -0.20320243  0.0877949   0.05418356],[ 0.  0.  0. -0.],[ -0.27652034 -13.83754063 -18.18201256   0.06067865],ECM1measured_js.parquet
13880.0,1744302484.0,642068429.0,0,['outer_yaw' 'outer_pitch' 'insertion' 'outer_roll'],[-0.03489912 -0.20320243  0.0877949   0.05418356],[ 0.  0.  0. -0.],[ -0.27557734 -13.83648396 -18.18201256   0.06067865],ECM1measured_js.parquet
13881.0,1744302484.0,661779146.0,0,['outer_yaw' 'outer_pitch' 'insertion' 'outer_roll'],[-0.03489912 -0.20320243  0.0877949   0.05418356],[ 0.  0.  0. -0.],[ -0.27463433 -13.83542728 -18.18201256   0.06067865],ECM1measured_js.parquet
13883.0,1744302484.0,700836384.0,0,['outer_yaw' 'outer_pitch' 'insertion' 'outer_roll'],[-0.03489912 -0.20320243  0.0877949   0.05418356],[ 0.  0.  0. -0.],[ -0.27274832 -13.83331299 -18.18201256   0.06067865],ECM1measured_js.parquet
13884.0,1744302484.0,720171805.0,0,['outer_yaw' 'outer_pitch' 'insertion' 'outer_roll'],[-0.03489912 -0.20320243  0.0877949   0.05418356],[ 0.  0.  0. -0.],[ -0.27180532 -13.83225632 -18.18201256   0.06067865],ECM1measured_js.parquet
13885.0,1744302484.0,739453581.0,0,['outer_yaw' 'outer_pitch' 'insertion' 'outer_roll'],[-0.03489912 -0.20320243  0.0877949   0.05418356],[ 0.  0.  0. -0.],[ -0.27086231 -13.83119965 -18.18201256   0.06067865],ECM1measured_js.parquet
13886.0,1744302484.0,762366176.0,0,['outer_yaw' 'outer_pitch' 'insertion' 'outer_roll'],[-0.03489912 -0.20320243  0.0877949   0.05418356],[ 0.  0.  0. -0.],[ -0.26991931 -13.83014202 -18.18201256   0.06067865],ECM1measured_js.parquet
13887.0,1744302484.0,778670175.0,0,['outer_yaw' 'outer_pitch' 'insertion' 'outer_roll'],[-0.03489912 -0.20320243  0.0877949   0.05418356],[ 0.  0.  0. -0.],[ -0.2689763  -13.82908535 -18.18201256   0.06067865],ECM1measured_js.parquet
13888.0,1744302484.0,798056784.0,0,['outer_yaw' 'outer_pitch' 'insertion' 'outer_roll'],[-0.03489912 -0.20320243  0.0877949   0.05418356],[ 0.  0.  0. -0.],[ -0.2680333  -13.82802868 -18.18201256   0.06067865],ECM1measured_js.parquet
13889.0,1744302484.0,817196452.0,0,['outer_yaw' 'outer_pitch' 'insertion' 'outer_roll'],[-0.03489912 -0.20320243  0.0877949   0.05418356],[ 0.  0.  0. -0.],[ -0.26709029 -13.82697201 -18.18201256   0.06067865],ECM1measured_js.parquet
13890.0,1744302484.0,856450986.0,0,['outer_yaw' 'outer_pitch' 'insertion' 'outer_roll'],[-0.03489912 -0.2032029   0.0877949   0.05418356],[ 0.  0.  0. -0.],[ -0.26520434 -13.82369804 -18.18202209   0.06067865],ECM1measured_js.parquet
13890.0,1744302484.0,856450986.0,0,['outer_yaw' 'outer_pitch' 'insertion' 'outer_roll'],[-0.03489912 -0.2032029   0.0877949   0.05418356],[ 0.  0.  0. -0.],[ -0.26520434 -13.82369804 -18.18202209   0.06067865],ECM1measured_js.parquet
13891.0,1744302484.0,876278537.0,0,['outer_yaw' 'outer_pitch' 'insertion' 'outer_roll'],[-0.03489912 -0.2032029   0.0877949   0.05418356],[ 0.  0.  0. -0.],[ -0.26426134 -13.82248306 -18.18202209   0.06067865],ECM1measured_js.parquet
13892.0,1744302484.0,895804221.0,0,['outer_yaw' 'outer_pitch' 'insertion' 'outer_roll'],[-0.03489912 -0.2032029   0.0877949   0.05418356],[ 0.  0.  0. -0.],[ -0.26331833 -13.82126808 -18.18202209   0.06067865],ECM1measured_js.parquet
13893.0,1744302484.0,914361073.0,0,['outer_yaw' 'outer_pitch' 'insertion' 'outer_roll'],[-0.03489912 -0.2032029   0.0877949   0.05418356],[ 0.  0.  0. -0.],[ -0.26237532 -13.8200531  -18.18202209   0.06067865],ECM1measured_js.parquet
13894.0,1744302484.0,934619071.0,0,['outer_yaw' 'outer_pitch' 'insertion' 'outer_roll'],[-0.03489912 -0.2032029   0.0877949   0.05418356],[ 0.  0.  0. -0.],[ -0.26143232 -13.81883812 -18.18202209   0.06067865],ECM1measured_js.parquet
13895.0,1744302484.0,954194421.0,0,['outer_yaw' 'outer_pitch' 'insertion' 'outer_roll'],[-0.03489912 -0.2032029   0.0877949   0.05418356],[ 0.  0.  0. -0.],[ -0.26048931 -13.81762314 -18.18202209   0.06067865],ECM1measured_js.parquet
13896.0,1744302484.0,973719093.0,0,['outer_yaw' 'outer_pitch' 'insertion' 'outer_roll'],[-0.03489912 -0.2032029   0.0877949   0.05418356],[ 0.  0.  0. -0.],[ -0.25954631 -13.81640816 -18.18202209   0.06067865],ECM1measured_js.parquet
13898.0,1744302485.0,12715374.0,0,['outer_yaw' 'outer_pitch' 'insertion' 'outer_roll'],[-0.03489912 -0.2032029   0.0877949   0.05418356],[ 0.  0.  0. -0.],[ -0.2576603  -13.8139782  -18.18202209   0.06067865],ECM1measured_js.parquet
13899.0,1744302485.0,32402957.0,0,['outer_yaw' 'outer_pitch' 'insertion' 'outer_roll'],[-0.03489912 -0.2032029   0.0877949   0.05418356],[ 0.  0.  0. -0.],[ -0.25671729 -13.81276321 -18.18202209   0.06067865],ECM1measured_js.parquet
13900.0,1744302485.0,51351367.0,0,['outer_yaw' 'outer_pitch' 'insertion' 'outer_roll'],[-0.03489912 -0.2032029   0.0877949   0.05418356],[ 0.  0.  0. -0.],[ -0.25577429 -13.81154823 -18.18202209   0.06067865],ECM1measured_js.parquet
13901.0,1744302485.0,70868257.0,0,['outer_yaw' 'outer_pitch' 'insertion' 'outer_roll'],[-0.03489912 -0.2032029   0.0877949   0.05418356],[ 0.  0.  0. -0.],[ -0.25483128 -13.81033325 -18.18202209   0.06067865],ECM1measured_js.parquet
13902.0,1744302485.0,90729356.0,0,['outer_yaw' 'outer_pitch' 'insertion' 'outer_roll'],[-0.03489912 -0.2032029   0.0877949   0.05418356],[ 0.  0.  0. -0.],[ -0.25388828 -13.80911827 -18.18202209   0.06067865],ECM1measured_js.parquet
13903.0,1744302485.0,110135473.0,0,['outer_yaw' 'outer_pitch' 'insertion' 'outer_roll'],[-0.03489912 -0.2032029   0.0877949   0.05418356],[ 0.  0.  0. -0.],[ -0.25294527 -13.80790329 -18.18202209   0.06067865],ECM1measured_js.parquet
13904.0,1744302485.0,129104359.0,0,['outer_yaw' 'outer_pitch' 'insertion' 'outer_roll'],[-0.03489912 -0.20320332  0.0877949   0.05418356],[ 0.  0.  0. -0.],[ -0.2520023  -13.80573845 -18.18202972   0.06067865],ECM1measured_js.parquet
13905.0,1744302485.0,148730766.0,0,['outer_yaw' 'outer_pitch' 'insertion' 'outer_roll'],[-0.03489912 -0.20320332  0.0877949   0.05418356],[ 0.  0.  0. -0.],[ -0.25105929 -13.80438709 -18.18202972   0.06067865],ECM1measured_js.parquet
13906.0,1744302485.0,168867505.0,0,['outer_yaw' 'outer_pitch' 'insertion' 'outer_roll'],[-0.03489912 -0.20320332  0.0877949   0.05418356],[ 0.  0.  0. -0.],[ -0.25011629 -13.80303574 -18.18202972   0.06067865],ECM1measured_js.parquet
13907.0,1744302485.0,188300930.0,0,['outer_yaw' 'outer_pitch' 'insertion' 'outer_roll'],[-0.03489912 -0.20320332  0.0877949   0.05418356],[ 0.  0.  0. -0.],[ -0.2491733  -13.80168438 -18.18202972   0.06067865],ECM1measured_js.parquet
13908.0,1744302485.0,208273407.0,0,['outer_yaw' 'outer_pitch' 'insertion' 'outer_roll'],[-0.03489912 -0.20320332  0.0877949   0.05418356],[ 0.  0.  0. -0.],[ -0.24823029 -13.80033302 -18.18202972   0.06067865],ECM1measured_js.parquet
13909.0,1744302485.0,226928162.0,0,['outer_yaw' 'outer_pitch' 'insertion' 'outer_roll'],[-0.03489912 -0.20320332  0.0877949   0.05418356],[ 0.  0.  0. -0.],[ -0.24728729 -13.79898167 -18.18202972   0.06067865],ECM1measured_js.parquet
13910.0,1744302485.0,246763936.0,0,['outer_yaw' 'outer_pitch' 'insertion' 'outer_roll'],[-0.03489912 -0.20320332  0.0877949   0.05418356],[ 0.  0.  0. -0.],[ -0.24634428 -13.79763031 -18.18202972   0.06067865],ECM1measured_js.parquet
13911.0,1744302485.0,266230752.0,0,['outer_yaw' 'outer_pitch' 'insertion' 'outer_roll'],[-0.03489912 -0.20320332  0.0877949   0.05418356],[ 0.  0.  0. -0.],[ -0.24540128 -13.79627895 -18.18202972   0.06067865],ECM1measured_js.parquet
13912.0,1744302485.0,285804042.0,0,['outer_yaw' 'outer_pitch' 'insertion' 'outer_roll'],[-0.03489912 -0.20320332  0.0877949   0.05418356],[ 0.  0.  0. -0.],[ -0.24445827 -13.7949276  -18.18202972   0.06067865],ECM1measured_js.parquet
13914.0,1744302485.0,324348994.0,0,['outer_yaw' 'outer_pitch' 'insertion' 'outer_roll'],[-0.03489912 -0.20320332  0.0877949   0.05418356],[ 0.  0.  0. -0.],[ -0.24257226 -13.79222488 -18.18202972   0.06067865],ECM1measured_js.parquet
13915.0,1744302485.0,344241217.0,0,['outer_yaw' 'outer_pitch' 'insertion' 'outer_roll'],[-0.03489912 -0.20320332  0.0877949   0.05418356],[ 0.  0.  0. -0.],[ -0.24162926 -13.79087353 -18.18202972   0.06067865],ECM1measured_js.parquet
13916.0,1744302485.0,363469120.0,0,['outer_yaw' 'outer_pitch' 'insertion' 'outer_roll'],[-0.03489912 -0.20320332  0.0877949   0.05418356],[ 0.  0.  0. -0.],[ -0.24068625 -13.78952217 -18.18202972   0.06067865],ECM1measured_js.parquet
13917.0,1744302485.0,382879612.0,0,['outer_yaw' 'outer_pitch' 'insertion' 'outer_roll'],[-0.03489912 -0.20320332  0.0877949   0.05418356],[ 0.  0.  0. -0.],[ -0.23974325 -13.78817081 -18.18202972   0.06067865],ECM1measured_js.parquet
13918.0,1744302485.0,402364782.0,0,['outer_yaw' 'outer_pitch' 'insertion' 'outer_roll'],[-0.03489912 -0.20320332  0.0877949   0.05418356],[ 0.  0.  0. -0.],[ -0.23880024 -13.78681946 -18.18202972   0.06067865],ECM1measured_js.parquet
13919.0,1744302485.0,422576437.0,0,['outer_yaw' 'outer_pitch' 'insertion' 'outer_roll'],[-0.03489912 -0.20320332  0.0877949   0.05418356],[ 0.  0.  0. -0.],[ -0.23785724 -13.7854681  -18.18202972   0.06067865],ECM1measured_js.parquet
13921.0,1744302485.0,441625822.0,0,['outer_yaw' 'outer_pitch' 'insertion' 'outer_roll'],[-0.03489912 -0.20320332  0.0877949   0.05418356],[ 0.  0.  0. -0.],[ -0.23691423 -13.78411674 -18.18202972   0.06067865],ECM1measured_js.parquet
13922.0,1744302485.0,480977870.0,0,['outer_yaw' 'outer_pitch' 'insertion' 'outer_roll'],[-0.03489912 -0.2032038   0.0877949   0.05418356],[ 0.  0.  0. -0.],[ -0.23502828 -13.78017044 -18.18203926   0.06067865],ECM1measured_js.parquet
13922.0,1744302485.0,480977870.0,0,['outer_yaw' 'outer_pitch' 'insertion' 'outer_roll'],[-0.03489912 -0.2032038   0.0877949   0.05418356],[ 0.  0.  0. -0.],[ -0.23502828 -13.78017044 -18.18203926   0.06067865],ECM1measured_js.parquet
13923.0,1744302485.0,500043296.0,0,['outer_yaw' 'outer_pitch' 'insertion' 'outer_roll'],[-0.03489912 -0.2032038   0.0877949   0.05418356],[ 0.  0.  0. -0.],[ -0.23408528 -13.77866077 -18.18203926   0.06067865],ECM1measured_js.parquet
13924.0,1744302485.0,520000009.0,0,['outer_yaw' 'outer_pitch' 'insertion' 'outer_roll'],[-0.03489912 -0.2032038   0.0877949   0.05418356],[ 0.  0.  0. -0.],[ -0.23314227 -13.77715111 -18.18203926   0.06067865],ECM1measured_js.parquet
13925.0,1744302485.0,539404051.0,0,['outer_yaw' 'outer_pitch' 'insertion' 'outer_roll'],[-0.03489912 -0.2032038   0.0877949   0.05418356],[ 0.  0.  0. -0.],[ -0.23219927 -13.77564144 -18.18203926   0.06067865],ECM1measured_js.parquet
13926.0,1744302485.0,578290878.0,0,['outer_yaw' 'outer_pitch' 'insertion' 'outer_roll'],[-0.03489912 -0.2032038   0.0877949   0.05418356],[ 0.  0.  0. -0.],[ -0.23031326 -13.77262306 -18.18203926   0.06067865],ECM1measured_js.parquet
13926.0,1744302485.0,578290878.0,0,['outer_yaw' 'outer_pitch' 'insertion' 'outer_roll'],[-0.03489912 -0.2032038   0.0877949   0.05418356],[ 0.  0.  0. -0.],[ -0.23031326 -13.77262306 -18.18203926   0.06067865],ECM1measured_js.parquet
13928.0,1744302485.0,617429131.0,0,['outer_yaw' 'outer_pitch' 'insertion' 'outer_roll'],[-0.03489912 -0.2032038   0.0877949   0.05418356],[ 0.  0.  0. -0.],[ -0.22842725 -13.76960373 -18.18203926   0.06067865],ECM1measured_js.parquet
13929.0,1744302485.0,636856043.0,0,['outer_yaw' 'outer_pitch' 'insertion' 'outer_roll'],[-0.0348982  -0.2032038   0.0877949   0.05418356],[ 0.00122719  0.          0.         -0.        ],[ -0.29120222 -13.76809311 -18.18203926   0.06067865],ECM1measured_js.parquet
13930.0,1744302485.0,656348660.0,0,['outer_yaw' 'outer_pitch' 'insertion' 'outer_roll'],[-0.0348936  -0.2032038   0.0877949   0.05418356],[ 0.  0.  0. -0.],[ -0.23403957 -13.76658344 -18.18204117   0.06067865],ECM1measured_js.parquet
13931.0,1744302485.0,675592729.0,0,['outer_yaw' 'outer_pitch' 'insertion' 'outer_roll'],[-0.0348936  -0.2032038   0.0877949   0.05418356],[ 0.  0.  0. -0.],[ -0.23432124 -13.76507378 -18.18204117   0.06067865],ECM1measured_js.parquet
13932.0,1744302485.0,695053310.0,0,['outer_yaw' 'outer_pitch' 'insertion' 'outer_roll'],[-0.0348936  -0.2032038   0.0877949   0.05418356],[ 0.  0.  0. -0.],[ -0.2346029  -13.76356411 -18.18204117   0.06067865],ECM1measured_js.parquet
13933.0,1744302485.0,714752554.0,0,['outer_yaw' 'outer_pitch' 'insertion' 'outer_roll'],[-0.0348936  -0.2032038   0.0877949   0.05418356],[ 0.  0.  0. -0.],[ -0.23488456 -13.7620554  -18.18204117   0.06067865],ECM1measured_js.parquet
13934.0,1744302485.0,733548104.0,0,['outer_yaw' 'outer_pitch' 'insertion' 'outer_roll'],[-0.0348936  -0.2032038   0.0877949   0.05418356],[ 0.  0.  0. -0.],[ -0.23516622 -13.76054573 -18.18204117   0.06067865],ECM1measured_js.parquet
13935.0,1744302485.0,753246302.0,0,['outer_yaw' 'outer_pitch' 'insertion' 'outer_roll'],[-0.0348936  -0.2032038   0.0877949   0.05418356],[ 0.  0.  0. -0.],[ -0.23544788 -13.75903606 -18.18204117   0.06067865],ECM1measured_js.parquet
13936.0,1744302485.0,772782082.0,0,['outer_yaw' 'outer_pitch' 'insertion' 'outer_roll'],[-0.0348936  -0.2032038   0.0877949   0.05418356],[ 0.  0.  0. -0.],[ -0.23572955 -13.7575264  -18.18204117   0.06067865],ECM1measured_js.parquet
13937.0,1744302485.0,792777819.0,0,['outer_yaw' 'outer_pitch' 'insertion' 'outer_roll'],[-0.0348936  -0.2032038   0.0877949   0.05418356],[ 0.  0.  0. -0.],[ -0.23601121 -13.75601768 -18.18204117   0.06067865],ECM1measured_js.parquet
13938.0,1744302485.0,812695611.0,0,['outer_yaw' 'outer_pitch' 'insertion' 'outer_roll'],[-0.0348936  -0.2032038   0.0877949   0.05418356],[ 0.  0.  0. -0.],[ -0.23629287 -13.75450802 -18.18204117   0.06067865],ECM1measured_js.parquet
13939.0,1744302485.0,831365318.0,0,['outer_yaw' 'outer_pitch' 'insertion' 'outer_roll'],[-0.0348936  -0.2032038   0.0877949   0.05418356],[ 0.  0.  0. -0.],[ -0.23657453 -13.75299835 -18.18204117   0.06067865],ECM1measured_js.parquet
13940.0,1744302485.0,851750045.0,0,['outer_yaw' 'outer_pitch' 'insertion' 'outer_roll'],[-0.0348936  -0.2032038   0.0877949   0.05418356],[ 0.  0.  0. -0.],[ -0.23685619 -13.75148869 -18.18204117   0.06067865],ECM1measured_js.parquet
13941.0,1744302485.0,870901680.0,0,['outer_yaw' 'outer_pitch' 'insertion' 'outer_roll'],[-0.0348936  -0.2032038   0.0877949   0.05418356],[ 0.  0.  0. -0.],[ -0.23713785 -13.74997997 -18.18204117   0.06067865],ECM1measured_js.parquet
13942.0,1744302485.0,890347282.0,0,['outer_yaw' 'outer_pitch' 'insertion' 'outer_roll'],[-0.0348936  -0.2032038   0.0877949   0.05418356],[ 0.  0.  0. -0.],[ -0.23741952 -13.74847031 -18.18204117   0.06067865],ECM1measured_js.parquet
13944.0,1744302485.0,929276977.0,0,['outer_yaw' 'outer_pitch' 'insertion' 'outer_roll'],[-0.0348936  -0.2032038   0.0877949   0.05418356],[ 0.  0.  0. -0.],[ -0.23798284 -13.74545097 -18.18204117   0.06067865],ECM1measured_js.parquet
13945.0,1744302485.0,948923548.0,0,['outer_yaw' 'outer_pitch' 'insertion' 'outer_roll'],[-0.0348936  -0.2032038   0.0877949   0.05418356],[ 0.  0.  0. -0.],[ -0.2382645  -13.74394226 -18.18204117   0.06067865],ECM1measured_js.parquet
13946.0,1744302485.0,968172909.0,0,['outer_yaw' 'outer_pitch' 'insertion' 'outer_roll'],[-0.0348936  -0.2032038   0.0877949   0.05418356],[ 0.  0.  0. -0.],[ -0.23854616 -13.74243259 -18.18204117   0.06067865],ECM1measured_js.parquet
13947.0,1744302485.0,987851230.0,0,['outer_yaw' 'outer_pitch' 'insertion' 'outer_roll'],[-0.0348936  -0.2032038   0.0877949   0.05418356],[ 0.  0.  0. -0.],[ -0.23882782 -13.74092293 -18.18204117   0.06067865],ECM1measured_js.parquet
13948.0,1744302486.0,9849505.0,0,['outer_yaw' 'outer_pitch' 'insertion' 'outer_roll'],[-0.0348936  -0.2032038   0.0877949   0.05418356],[ 0.  0.  0. -0.],[ -0.23910949 -13.73941326 -18.18204117   0.06067865],ECM1measured_js.parquet
13949.0,1744302486.0,27036910.0,0,['outer_yaw' 'outer_pitch' 'insertion' 'outer_roll'],[-0.0348936  -0.2032038   0.0877949   0.05418356],[ 0.  0.  0. -0.],[ -0.23939115 -13.73790455 -18.18204117   0.06067865],ECM1measured_js.parquet
13950.0,1744302486.0,45838633.0,0,['outer_yaw' 'outer_pitch' 'insertion' 'outer_roll'],[-0.0348936  -0.2032038   0.0877949   0.05418356],[ 0.  0.  0. -0.],[ -0.23967281 -13.73639488 -18.18204117   0.06067865],ECM1measured_js.parquet
13951.0,1744302486.0,65663254.0,0,['outer_yaw' 'outer_pitch' 'insertion' 'outer_roll'],[-0.0348936  -0.2032038   0.0877949   0.05418356],[ 0.  0.  0. -0.],[ -0.23995447 -13.73488522 -18.18204117   0.06067865],ECM1measured_js.parquet
13952.0,1744302486.0,85620171.0,0,['outer_yaw' 'outer_pitch' 'insertion' 'outer_roll'],[-0.0348936  -0.2032038   0.0877949   0.05418356],[ 0.  0.  0. -0.],[ -0.24023613 -13.73337555 -18.18204117   0.06067865],ECM1measured_js.parquet
13953.0,1744302486.0,104778748.0,0,['outer_yaw' 'outer_pitch' 'insertion' 'outer_roll'],[-0.0348936  -0.20320427  0.0877949   0.05418356],[ 0.  0.  0. -0.],[ -0.24051784 -13.7307806  -18.1820488    0.06067865],ECM1measured_js.parquet
13954.0,1744302486.0,124157075.0,0,['outer_yaw' 'outer_pitch' 'insertion' 'outer_roll'],[-0.0348936  -0.20320427  0.0877949   0.05418356],[ 0.  0.  0. -0.],[ -0.2407995  -13.72911453 -18.1820488    0.06067865],ECM1measured_js.parquet
13955.0,1744302486.0,143916117.0,0,['outer_yaw' 'outer_pitch' 'insertion' 'outer_roll'],[-0.0348936  -0.20320427  0.0877949   0.05418356],[ 0.  0.  0. -0.],[ -0.24108116 -13.72744942 -18.1820488    0.06067865],ECM1measured_js.parquet
13956.0,1744302486.0,163830752.0,0,['outer_yaw' 'outer_pitch' 'insertion' 'outer_roll'],[-0.0348936  -0.20320427  0.0877949   0.05418356],[ 0.  0.  0. -0.],[ -0.24136283 -13.72578335 -18.1820488    0.06067865],ECM1measured_js.parquet
13957.0,1744302486.0,182961662.0,0,['outer_yaw' 'outer_pitch' 'insertion' 'outer_roll'],[-0.0348936  -0.20320427  0.0877949   0.05418356],[ 0.  0.  0. -0.],[ -0.24164449 -13.72411728 -18.1820488    0.06067865],ECM1measured_js.parquet
13958.0,1744302486.0,202455685.0,0,['outer_yaw' 'outer_pitch' 'insertion' 'outer_roll'],[-0.03489268 -0.20320427  0.0877949   0.05418356],[ 0.  0.  0. -0.],[ -0.24307337 -13.72245121 -18.1820488    0.06067865],ECM1measured_js.parquet
13960.0,1744302486.0,241594464.0,0,['outer_yaw' 'outer_pitch' 'insertion' 'outer_roll'],[-0.03489268 -0.20320427  0.0877949   0.05418356],[ 0.  0.  0. -0.],[ -0.24404505 -13.71911907 -18.1820488    0.06067865],ECM1measured_js.parquet
13960.0,1744302486.0,241594464.0,0,['outer_yaw' 'outer_pitch' 'insertion' 'outer_roll'],[-0.03489268 -0.20320427  0.0877949   0.05418356],[ 0.  0.  0. -0.],[ -0.24404505 -13.71911907 -18.1820488    0.06067865],ECM1measured_js.parquet
13961.0,1744302486.0,280293204.0,0,['outer_yaw' 'outer_pitch' 'insertion' 'outer_roll'],[-0.03489268 -0.20320427  0.0877949   0.05418356],[ 0.  0.  0. -0.],[ -0.24501672 -13.71578693 -18.1820488    0.06067865],ECM1measured_js.parquet
13962.0,1744302486.0,300109527.0,0,['outer_yaw' 'outer_pitch' 'insertion' 'outer_roll'],[-0.03489268 -0.20320427  0.0877949   0.05418356],[ 0.  0.  0. -0.],[ -0.24550256 -13.71412086 -18.1820488    0.06067865],ECM1measured_js.parquet
13963.0,1744302486.0,319302840.0,0,['outer_yaw' 'outer_pitch' 'insertion' 'outer_roll'],[-0.03489268 -0.20320427  0.0877949   0.05418356],[ 0.  0.  0. -0.],[ -0.2459884  -13.71245575 -18.1820488    0.06067865],ECM1measured_js.parquet
13964.0,1744302486.0,338831991.0,0,['outer_yaw' 'outer_pitch' 'insertion' 'outer_roll'],[-0.03489268 -0.20320427  0.0877949   0.05418356],[ 0.  0.  0. -0.],[ -0.24647424 -13.71078968 -18.1820488    0.06067865],ECM1measured_js.parquet
13965.0,1744302486.0,360624171.0,0,['outer_yaw' 'outer_pitch' 'insertion' 'outer_roll'],[-0.03489268 -0.20320427  0.0877949   0.05418356],[ 0.  0.  0. -0.],[ -0.24696007 -13.70912361 -18.1820488    0.06067865],ECM1measured_js.parquet
13966.0,1744302486.0,377657088.0,0,['outer_yaw' 'outer_pitch' 'insertion' 'outer_roll'],[-0.03489268 -0.20320427  0.0877949   0.05418356],[ 0.  0.  0. -0.],[ -0.24744591 -13.70745754 -18.1820488    0.06067865],ECM1measured_js.parquet
13967.0,1744302486.0,397680390.0,0,['outer_yaw' 'outer_pitch' 'insertion' 'outer_roll'],[-0.03489268 -0.20320427  0.0877949   0.05418356],[ 0.  0.  0. -0.],[ -0.24793175 -13.70579147 -18.1820488    0.06067865],ECM1measured_js.parquet
13968.0,1744302486.0,417080652.0,0,['outer_yaw' 'outer_pitch' 'insertion' 'outer_roll'],[-0.03489268 -0.20320427  0.0877949   0.05418356],[ 0.  0.  0. -0.],[ -0.24841759 -13.7041254  -18.1820488    0.06067865],ECM1measured_js.parquet
13969.0,1744302486.0,436615385.0,0,['outer_yaw' 'outer_pitch' 'insertion' 'outer_roll'],[-0.03489268 -0.20320427  0.0877949   0.05418356],[ 0.  0.  0. -0.],[ -0.24890342 -13.70245934 -18.1820488    0.06067865],ECM1measured_js.parquet
13970.0,1744302486.0,455883482.0,0,['outer_yaw' 'outer_pitch' 'insertion' 'outer_roll'],[-0.03489268 -0.20320427  0.0877949   0.05418356],[ 0.  0.  0. -0.],[ -0.24938926 -13.70079422 -18.1820488    0.06067865],ECM1measured_js.parquet
13971.0,1744302486.0,475235801.0,0,['outer_yaw' 'outer_pitch' 'insertion' 'outer_roll'],[-0.03489268 -0.20320427  0.0877949   0.05418356],[ 0.  0.  0. -0.],[ -0.2498751  -13.69912815 -18.1820488    0.06067865],ECM1measured_js.parquet
13972.0,1744302486.0,495021357.0,0,['outer_yaw' 'outer_pitch' 'insertion' 'outer_roll'],[-0.03489268 -0.20320427  0.0877949   0.05418356],[ 0.  0.  0. -0.],[ -0.25036094 -13.69746208 -18.1820488    0.06067865],ECM1measured_js.parquet
13974.0,1744302486.0,533366444.0,0,['outer_yaw' 'outer_pitch' 'insertion' 'outer_roll'],[-0.03489268 -0.20320427  0.0877949   0.05418356],[ 0.  0.  0. -0.],[ -0.25133261 -13.69412994 -18.1820488    0.06067865],ECM1measured_js.parquet
13975.0,1744302486.0,552876510.0,0,['outer_yaw' 'outer_pitch' 'insertion' 'outer_roll'],[-0.0348936  -0.20320427  0.0877949   0.05418356],[-0.  0.  0. -0.],[ -0.2505613  -13.69246387 -18.1820488    0.06067865],ECM1measured_js.parquet
13976.0,1744302486.0,572855456.0,0,['outer_yaw' 'outer_pitch' 'insertion' 'outer_roll'],[-0.0348936  -0.20320427  0.0877949   0.05418356],[-0.  0.  0. -0.],[ -0.25084293 -13.69079781 -18.1820488    0.06067865],ECM1measured_js.parquet
13977.0,1744302486.0,592765589.0,0,['outer_yaw' 'outer_pitch' 'insertion' 'outer_roll'],[-0.0348936  -0.20320427  0.0877949   0.05418356],[-0.  0.  0. -0.],[ -0.25112462 -13.68913174 -18.1820488    0.06067865],ECM1measured_js.parquet
13978.0,1744302486.0,611828115.0,0,['outer_yaw' 'outer_pitch' 'insertion' 'outer_roll'],[-0.0348936  -0.20320427  0.0877949   0.05418356],[-0.  0.  0. -0.],[ -0.25140625 -13.68746567 -18.1820488    0.06067865],ECM1measured_js.parquet
13979.0,1744302486.0,631758973.0,0,['outer_yaw' 'outer_pitch' 'insertion' 'outer_roll'],[-0.03489268 -0.20320427  0.0877949   0.05418356],[ 0.  0.  0. -0.],[ -0.25290582 -13.68580055 -18.1820488    0.06067865],ECM1measured_js.parquet
13980.0,1744302486.0,651004843.0,0,['outer_yaw' 'outer_pitch' 'insertion' 'outer_roll'],[-0.03489268 -0.20320427  0.0877949   0.05418356],[ 0.  0.  0. -0.],[ -0.25339165 -13.68413353 -18.1820488    0.06067865],ECM1measured_js.parquet
13981.0,1744302486.0,670735217.0,0,['outer_yaw' 'outer_pitch' 'insertion' 'outer_roll'],[-0.03489268 -0.20320427  0.0877949   0.05418356],[ 0.  0.  0. -0.],[ -0.25387749 -13.68246651 -18.1820488    0.06067865],ECM1measured_js.parquet
13982.0,1744302486.0,689900970.0,0,['outer_yaw' 'outer_pitch' 'insertion' 'outer_roll'],[-0.03489268 -0.20320427  0.0877949   0.05418356],[ 0.  0.  0. -0.],[ -0.25436333 -13.68079853 -18.1820488    0.06067865],ECM1measured_js.parquet
13983.0,1744302486.0,709606383.0,0,['outer_yaw' 'outer_pitch' 'insertion' 'outer_roll'],[-0.03489268 -0.20320427  0.0877949   0.05418356],[ 0.  0.  0. -0.],[ -0.25484917 -13.67913055 -18.1820488    0.06067865],ECM1measured_js.parquet
13984.0,1744302486.0,729195422.0,0,['outer_yaw' 'outer_pitch' 'insertion' 'outer_roll'],[-0.03489268 -0.20320427  0.0877949   0.05418356],[ 0.  0.  0. -0.],[ -0.255335   -13.67746353 -18.1820488    0.06067865],ECM1measured_js.parquet
13985.0,1744302486.0,748485083.0,0,['outer_yaw' 'outer_pitch' 'insertion' 'outer_roll'],[-0.03489268 -0.20320427  0.0877949   0.05418356],[ 0.  0.  0. -0.],[ -0.25582084 -13.67579651 -18.1820488    0.06067865],ECM1measured_js.parquet
13986.0,1744302486.0,767890054.0,0,['outer_yaw' 'outer_pitch' 'insertion' 'outer_roll'],[-0.03489268 -0.20320427  0.0877949   0.05418356],[ 0.  0.  0. -0.],[ -0.25630668 -13.67412853 -18.1820488    0.06067865],ECM1measured_js.parquet
13987.0,1744302486.0,787885831.0,0,['outer_yaw' 'outer_pitch' 'insertion' 'outer_roll'],[-0.03489268 -0.20320427  0.0877949   0.05418356],[ 0.  0.  0. -0.],[ -0.25679252 -13.67246056 -18.1820488    0.06067865],ECM1measured_js.parquet
13988.0,1744302486.0,806428551.0,0,['outer_yaw' 'outer_pitch' 'insertion' 'outer_roll'],[-0.03489268 -0.20320427  0.0877949   0.05418356],[ 0.  0.  0. -0.],[ -0.25727835 -13.67079353 -18.1820488    0.06067865],ECM1measured_js.parquet
13990.0,1744302486.0,845813635.0,0,['outer_yaw' 'outer_pitch' 'insertion' 'outer_roll'],[-0.03489268 -0.20320427  0.0877949   0.05418356],[ 0.  0.  0. -0.],[ -0.25825003 -13.66745853 -18.1820488    0.06067865],ECM1measured_js.parquet
13991.0,1744302486.0,865640790.0,0,['outer_yaw' 'outer_pitch' 'insertion' 'outer_roll'],[-0.03489268 -0.20320427  0.0877949   0.05418356],[ 0.  0.  0. -0.],[ -0.25873587 -13.66579056 -18.1820488    0.06067865],ECM1measured_js.parquet
13992.0,1744302486.0,885159183.0,0,['outer_yaw' 'outer_pitch' 'insertion' 'outer_roll'],[-0.03489268 -0.20320427  0.08779132  0.05418356],[ 0.  0.  0. -0.],[ -0.25922084 -13.66419029 -18.11052322   0.06067865],ECM1measured_js.parquet
13993.0,1744302486.0,904410288.0,0,['outer_yaw' 'outer_pitch' 'insertion' 'outer_roll'],[-0.03489268 -0.20320427  0.08779132  0.05418356],[ 0.  0.  0. -0.],[ -0.25970668 -13.66252327 -18.11052322   0.06067865],ECM1measured_js.parquet
13993.0,1744302486.0,904410288.0,0,['outer_yaw' 'outer_pitch' 'insertion' 'outer_roll'],[-0.03489268 -0.20320427  0.08779132  0.05418356],[ 0.  0.  0. -0.],[ -0.25970668 -13.66252327 -18.11052322   0.06067865],ECM1measured_js.parquet
13994.0,1744302486.0,943325868.0,0,['outer_yaw' 'outer_pitch' 'insertion' 'outer_roll'],[-0.03489268 -0.20320427  0.08779132  0.05418356],[ 0.  0.  0. -0.],[ -0.26067835 -13.65918732 -18.11052322   0.06067865],ECM1measured_js.parquet
13995.0,1744302486.0,962581825.0,0,['outer_yaw' 'outer_pitch' 'insertion' 'outer_roll'],[-0.03489268 -0.20320427  0.08779132  0.05418356],[ 0.  0.  0. -0.],[ -0.26116419 -13.65752029 -18.11052322   0.06067865],ECM1measured_js.parquet
13996.0,1744302486.0,982710141.0,0,['outer_yaw' 'outer_pitch' 'insertion' 'outer_roll'],[-0.03489268 -0.20320427  0.08779132  0.05418356],[ 0.  0.  0. -0.],[ -0.26165003 -13.65585327 -18.11052322   0.06067865],ECM1measured_js.parquet
13997.0,1744302487.0,2104349.0,0,['outer_yaw' 'outer_pitch' 'insertion' 'outer_roll'],[-0.03489268 -0.20320427  0.08779132  0.05418356],[ 0.  0.  0. -0.],[ -0.26213586 -13.6541853  -18.11052322   0.06067865],ECM1measured_js.parquet
13998.0,1744302487.0,21310617.0,0,['outer_yaw' 'outer_pitch' 'insertion' 'outer_roll'],[-0.03489268 -0.20320427  0.08779132  0.05418356],[ 0.  0.  0. -0.],[ -0.2626217  -13.65251732 -18.11052322   0.06067865],ECM1measured_js.parquet
14000.0,1744302487.0,41134692.0,0,['outer_yaw' 'outer_pitch' 'insertion' 'outer_roll'],[-0.03489268 -0.20320427  0.08779132  0.05418356],[ 0.  0.  0. -0.],[ -0.26310754 -13.6508503  -18.11052322   0.06067865],ECM1measured_js.parquet
14001.0,1744302487.0,80138087.0,0,['outer_yaw' 'outer_pitch' 'insertion' 'outer_roll'],[-0.03489268 -0.20320427  0.08779132  0.05418356],[ 0.  0.  0. -0.],[ -0.26407921 -13.6475153  -18.11052322   0.06067865],ECM1measured_js.parquet
14001.0,1744302487.0,80138087.0,0,['outer_yaw' 'outer_pitch' 'insertion' 'outer_roll'],[-0.03489268 -0.20320427  0.08779132  0.05418356],[ 0.  0.  0. -0.],[ -0.26407921 -13.6475153  -18.11052322   0.06067865],ECM1measured_js.parquet
14002.0,1744302487.0,99348809.0,0,['outer_yaw' 'outer_pitch' 'insertion' 'outer_roll'],[-0.03489268 -0.20320427  0.08779132  0.05418356],[ 0.  0.  0. -0.],[ -0.26456505 -13.64584732 -18.11052322   0.06067865],ECM1measured_js.parquet
14003.0,1744302487.0,119211796.0,0,['outer_yaw' 'outer_pitch' 'insertion' 'outer_roll'],[-0.0348936  -0.20320427  0.08779132  0.05418356],[-0.  0.  0. -0.],[ -0.2637623  -13.6441803  -18.11052322   0.06067865],ECM1measured_js.parquet
14004.0,1744302487.0,138502474.0,0,['outer_yaw' 'outer_pitch' 'insertion' 'outer_roll'],[-0.0348936  -0.20320427  0.08779132  0.05418356],[-0.  0.  0. -0.],[ -0.26404396 -13.64251328 -18.11052322   0.06067865],ECM1measured_js.parquet
14006.0,1744302487.0,177828706.0,0,['outer_yaw' 'outer_pitch' 'insertion' 'outer_roll'],[-0.0348936  -0.20320427  0.08779132  0.05418356],[-0.  0.  0. -0.],[ -0.26460728 -13.63917732 -18.11052322   0.06067865],ECM1measured_js.parquet
14007.0,1744302487.0,196998604.0,0,['outer_yaw' 'outer_pitch' 'insertion' 'outer_roll'],[-0.0348936  -0.20320427  0.08779132  0.05418356],[-0.  0.  0. -0.],[ -0.26488894 -13.6375103  -18.11052322   0.06067865],ECM1measured_js.parquet
14008.0,1744302487.0,216576620.0,0,['outer_yaw' 'outer_pitch' 'insertion' 'outer_roll'],[-0.0348936  -0.20320427  0.08779132  0.05418356],[-0.  0.  0. -0.],[ -0.2651706  -13.63584328 -18.11052322   0.06067865],ECM1measured_js.parquet
14009.0,1744302487.0,236247546.0,0,['outer_yaw' 'outer_pitch' 'insertion' 'outer_roll'],[-0.0348936  -0.20320427  0.08779132  0.05418356],[-0.  0.  0. -0.],[ -0.26545227 -13.6341753  -18.11052322   0.06067865],ECM1measured_js.parquet
14010.0,1744302487.0,255640446.0,0,['outer_yaw' 'outer_pitch' 'insertion' 'outer_roll'],[-0.0348936  -0.20320427  0.08779132  0.05418356],[-0.  0.  0. -0.],[ -0.26573393 -13.63250732 -18.11052322   0.06067865],ECM1measured_js.parquet
14011.0,1744302487.0,275078739.0,0,['outer_yaw' 'outer_pitch' 'insertion' 'outer_roll'],[-0.0348936  -0.20320427  0.08779132  0.05418356],[-0.  0.  0. -0.],[ -0.26601559 -13.6308403  -18.11052322   0.06067865],ECM1measured_js.parquet
14012.0,1744302487.0,294682293.0,0,['outer_yaw' 'outer_pitch' 'insertion' 'outer_roll'],[-0.0348936  -0.20320427  0.08779132  0.05418356],[-0.  0.  0. -0.],[ -0.26629725 -13.62917328 -18.11052322   0.06067865],ECM1measured_js.parquet
